objectid,title,location,latitude,longitude,rights,object_location,image_small,image_thumb
252225,"Temple of Aphaia, with man and woman resting in shade","Aegina (Sanctuary of Aphaia), Greece",37.745324,23.428076,"For a higher resolution image, or any questions, please contact resphotos@princeton.edu. Collection located in Visual Resources, Department of Art and Archaeology, Princeton University ",/objects/252225.jpg,/objects/small/252225_sm.jpg,/objects/thumbs/252225_th.jpg
252237,Byzantine church interior,"Aegina, Greece",37.745324,23.428076,"For a higher resolution image, or any questions, please contact resphotos@princeton.edu. Collection located in Visual Resources, Department of Art and Archaeology, Princeton University ",/objects/252237.jpg,/objects/small/252237_sm.jpg,/objects/thumbs/252237_th.jpg
252277,Castle walls,"Amfissa, Greece",38.528881,22.377844,"For a higher resolution image, or any questions, please contact resphotos@princeton.edu. Collection located in Visual Resources, Department of Art and Archaeology, Princeton University ",/objects/252277.jpg,/objects/small/252277_sm.jpg,/objects/thumbs/252277_th.jpg
252340,North side of Parthenon,"Athens (Acropolis), Greece",37.98888,23.73604,"For a higher resolution image, or any questions, please contact resphotos@princeton.edu. Collection located in Visual Resources, Department of Art and Archaeology, Princeton University ",/objects/252340.jpg,/objects/small/252340_sm.jpg,/objects/thumbs/252340_th.jpg
252408,Relief in courtyard of Chalcis Museum,"Chalcis, Greece",38.4628,23.599506,"For a higher resolution image, or any questions, please contact resphotos@princeton.edu. Collection located in Visual Resources, Department of Art and Archaeology, Princeton University ",/objects/252408.jpg,/objects/small/252408_sm.jpg,/objects/thumbs/252408_th.jpg
253079,View of the Temple of Hera,"Olympia, Greece",37.644326,21.625414,"For a higher resolution image, or any questions, please contact resphotos@princeton.edu. Collection located in Visual Resources, Department of Art and Archaeology, Princeton University ",/objects/253079.jpg,/objects/small/253079_sm.jpg,/objects/thumbs/253079_th.jpg
253515,Relief in museum courtyard,"Thebes, Greece",38.319343,23.318289,"For a higher resolution image, or any questions, please contact resphotos@princeton.edu. Collection located in Visual Resources, Department of Art and Archaeology, Princeton University ",/objects/253515.jpg,/objects/small/253515_sm.jpg,/objects/thumbs/253515_th.jpg